[
  {"name": "Softwerkskammer Berlin", "lat": 52.5200, "lon": 13.4050, "url": "https://www.meetup.com/software-craftsmanship-berlin/"},
  {"name": "Softwerkskammer Düsseldorf", "lat": 51.2277, "lon": 6.7735, "url": "https://www.meetup.com/de-de/softwerkskammer-dusseldorf/"},
  {"name": "Softwerkskammer Hamburg", "lat": 53.5511, "lon": 9.9937, "url": "https://www.meetup.com/sokahh/"},
  {"name": "Softwerkskammer Karlsruhe", "lat": 49.0069, "lon": 8.4037, "url": "https://app.agorakit.org/groups/3374"},
  {"name": "Softwerkskammer Kiel", "lat": 54.3233, "lon": 10.1228, "url": "https://www.meetup.com/de-de/software-craftsmanship-kiel-region/"},
  {"name": "Softwerkskammer Köln", "lat": 50.9375, "lon": 6.9603, "url": "https://www.meetup.com/softwerkskammer-koln/"},
  {"name": "Softwerkskammer Lübeck", "lat": 53.8655, "lon": 10.6866, "url": "https://www.meetup.com/softwerkskammer-luebeck/"},
  {"name": "Softwerkskammer München", "lat": 48.1351, "lon": 11.5820, "url": "https://www.meetup.com/de-DE/munich-software-craft-community/"},
  {"name": "Softwerkskammer Münster / Osnabrück / Bielefeld", "lat": 52.0302, "lon": 8.5325, "url": "https://www.meetup.com/socramob/"},
  {"name": "Softwerkskammer Nürnberg", "lat": 49.4521, "lon": 11.0767, "url": "https://www.meetup.com/de-de/softwerkskammer-nuernberg/"},
  {"name": "Softwerkskammer Rhein-Neckar", "lat": 49.4875, "lon": 8.4660, "url": "https://www.meetup.com/de-de/softwerkskammer-rhein-neckar/"},
  {"name": "Softwerkskammer Thüringen", "lat": 50.9848, "lon": 11.0299, "url": "https://www.meetup.com/swkthde/"},
  {"name": "Softwerkskammer Wien", "lat": 48.2082, "lon": 16.3738, "url": "https://swkwien.github.io/"}
]
